[{"name":"99% Tea House","rating":4.5,"address":"3623 Thornton Ave","city":"Fremont","lat":37.56295,"long":-122.01004,"zip code":"94536","Number of Pikachu":61},{"name":"Royaltea USA","rating":4.0,"address":"38509 Fremont Blvd","city":"Fremont","lat":37.5513151288,"long":-121.993849799,"zip code":"94536","Number of Pikachu":61},{"name":"Tata Teahouse","rating":3.0,"address":"39230 Argonaut Way","city":"Fremont","lat":37.543782,"long":-121.986825,"zip code":"94536","Number of Pikachu":61},{"name":"T4","rating":3.0,"address":"36400 Fremont Blvd","city":"Fremont","lat":37.5631118502,"long":-122.0152914759,"zip code":"94536","Number of Pikachu":61},{"name":"Q Cup","rating":3.0,"address":"39129 Fremont Blvd","city":"Fremont","lat":37.546169948,"long":-121.9874015257,"zip code":"94536","Number of Pikachu":61},{"name":"One Tea","rating":4.5,"address":"46809 Warm Springs Blvd","city":"Fremont","lat":37.4890666929,"long":-121.9294137508,"zip code":"94539","Number of Pikachu":14},{"name":"Gong Cha","rating":4.0,"address":"46827 Warm Springs Blvd","city":"Fremont","lat":37.4885682636,"long":-121.9291912689,"zip code":"94539","Number of Pikachu":14},{"name":"Happy Lemon","rating":4.5,"address":"46873 Warm Spring Blvd","city":"Fremont","lat":37.4884429093,"long":-121.9303836697,"zip code":"94539","Number of Pikachu":14},{"name":"Factory Tea Bar","rating":3.5,"address":"46461 Mission Blvd","city":"Fremont","lat":37.4922976028,"long":-121.9279187135,"zip code":"94539","Number of Pikachu":14},{"name":"Tea Island","rating":4.0,"address":"46196 Warm Springs Blvd","city":"Fremont","lat":37.493541436,"long":-121.9298893516,"zip code":"94539","Number of Pikachu":14},{"name":"T4","rating":3.5,"address":"46132 Warm Springs Blvd","city":"Fremont","lat":37.4932967,"long":-121.9312981,"zip code":"94539","Number of Pikachu":14},{"name":"Sweet CoCo","rating":4.0,"address":"46164 Warm Springs Blvd","city":"Fremont","lat":37.49369,"long":-121.93053,"zip code":"94539","Number of Pikachu":14},{"name":"TECO Tea & Coffee Bar","rating":4.5,"address":"39030 Paseo Padre Pkwy","city":"Fremont","lat":37.5536945,"long":-121.981043,"zip code":"94538","Number of Pikachu":46},{"name":"Super Cue Cafe","rating":3.5,"address":"43743 Boscell Rd","city":"Fremont","lat":37.5007782876,"long":-121.9731679559,"zip code":"94538","Number of Pikachu":46},{"name":"Taro Taro Dessert & Tea House","rating":3.5,"address":"6018 Stevenson Blvd","city":"Fremont","lat":37.519597382,"long":-121.9894932288,"zip code":"94538","Number of Pikachu":46},{"name":"i-Tea","rating":3.5,"address":"43421 Christy St","city":"Fremont","lat":37.5049924422,"long":-121.9712317362,"zip code":"94538","Number of Pikachu":46},{"name":"Sharetea","rating":4.0,"address":"3948 Washington Blvd","city":"Fremont","lat":37.53195,"long":-121.95789,"zip code":"94538","Number of Pikachu":46},{"name":"Gong Cha","rating":4.0,"address":"39730 Cedar Blvd","city":"Newark","lat":37.5208,"long":-121.996426,"zip code":"94538","Number of Pikachu":46},{"name":"Sno-Crave Tea House","rating":3.0,"address":"43773 Boscell Rd","city":"Fremont","lat":37.500044,"long":-121.973622,"zip code":"94538","Number of Pikachu":46},{"name":"Sweet Home Cafe","rating":3.5,"address":"6068 Stevenson Blvd","city":"Fremont","lat":37.518066642,"long":-121.9895240695,"zip code":"94538","Number of Pikachu":46},{"name":"Fusion Mix Frozen Yogurt","rating":4.5,"address":"4144 Walnut Ave","city":"Fremont","lat":37.5436017857,"long":-121.9840610993,"zip code":"94538","Number of Pikachu":46},{"name":"Storm Crepes","rating":4.5,"address":"39658 Cedar Blvd","city":"Newark","lat":37.521816988,"long":-121.9973664928,"zip code":"94538","Number of Pikachu":46},{"name":"Milkcow","rating":3.5,"address":"5657 Auto Mall Pkwy","city":"Fremont","lat":37.50466,"long":-121.97634,"zip code":"94538","Number of Pikachu":46},{"name":"Bean Scene Cafe","rating":4.0,"address":"4000 Bay St","city":"Fremont","lat":37.532729,"long":-121.95934,"zip code":"94538","Number of Pikachu":46},{"name":"T-LAB","rating":4.0,"address":"34133 Fremont Blvd","city":"Fremont","lat":37.576149,"long":-122.0437049,"zip code":"94587","Number of Pikachu":35},{"name":"Milk and Honey Cafe","rating":3.5,"address":"34265 Fremont Blvd","city":"Fremont","lat":37.5754481033,"long":-122.042586921,"zip code":"94587","Number of Pikachu":35},{"name":"Tea Six","rating":3.5,"address":"34460 Fremont Blvd","city":"Fremont","lat":37.57509,"long":-122.0386,"zip code":"94587","Number of Pikachu":35},{"name":"Boba Queen","rating":3.5,"address":"34420 Fremont Blvd","city":"Fremont","lat":37.5757,"long":-122.03977,"zip code":"94587","Number of Pikachu":35},{"name":"Boba Fitt Drinks","rating":3.5,"address":"31877 Alvarado Blvd","city":"Union City","lat":37.5897191179,"long":-122.071148413,"zip code":"94587","Number of Pikachu":35},{"name":"Sno-Crave Teahouse","rating":4.0,"address":"1788 Decoto Rd","city":"Union City","lat":37.5889987,"long":-122.0208657,"zip code":"94587","Number of Pikachu":35},{"name":"Sharetea","rating":3.5,"address":"34391 Alvarado Niles Rd","city":"Union City","lat":37.587234,"long":-122.022712,"zip code":"94587","Number of Pikachu":35},{"name":"Mr Green Bubble","rating":3.5,"address":"1644 Decoto Rd","city":"Union City","lat":37.5895754514,"long":-122.0206748747,"zip code":"94587","Number of Pikachu":35},{"name":"Joy 4 Tea","rating":3.5,"address":"32148 Alvarado Blvd","city":"Union City","lat":37.5894163879,"long":-122.0676834125,"zip code":"94587","Number of Pikachu":35},{"name":"Tapioca Express","rating":3.5,"address":"1707 Decoto Rd","city":"Union City","lat":37.5894454842,"long":-122.0218339576,"zip code":"94587","Number of Pikachu":35},{"name":"BlackBall Desserts-Union City","rating":3.5,"address":"34563 Alvarado Niles Rd","city":"Union City","lat":37.5866448,"long":-122.0201868,"zip code":"94587","Number of Pikachu":35},{"name":"Che-Lo","rating":4.5,"address":"1767 Decoto Blvd","city":"Union City","lat":37.5895628279,"long":-122.0224927143,"zip code":"94587","Number of Pikachu":35},{"name":"BAMBU","rating":3.5,"address":"31812-31822 Alvarado Blvd","city":"Union City","lat":37.5914603131,"long":-122.0711114346,"zip code":"94587","Number of Pikachu":35},{"name":"Sweet Orchid","rating":4.5,"address":"34460 Fremont Blvd","city":"Fremont","lat":37.5751187606,"long":-122.0388597067,"zip code":"94587","Number of Pikachu":35},{"name":"Jenjon's Cafe","rating":4.0,"address":"1704 Decoto Rd","city":"Union City","lat":37.5890585137,"long":-122.0187636889,"zip code":"94587","Number of Pikachu":35},{"name":"Q-Tea Monster","rating":4.0,"address":"39181 Cedar Blvd","city":"Newark","lat":37.5229604102,"long":-122.0057856325,"zip code":"94560","Number of Pikachu":24},{"name":"Tea Station","rating":3.5,"address":"39115 Cedar Blvd","city":"Newark","lat":37.523356,"long":-122.006645,"zip code":"94560","Number of Pikachu":24},{"name":"85\u00b0C Bakery Cafe","rating":3.5,"address":"35201 Newark Blvd","city":"Newark","lat":37.54772,"long":-122.0466,"zip code":"94560","Number of Pikachu":24},{"name":"ICICLES","rating":4.0,"address":"39055 Cedar Blvd","city":"Newark","lat":37.52314,"long":-122.00792,"zip code":"94560","Number of Pikachu":24},{"name":"Crepe Bar","rating":4.0,"address":"2078 Newpark Mall","city":"Newark","lat":37.5282308,"long":-122.0002458,"zip code":"94560","Number of Pikachu":24},{"name":"BAMBU","rating":3.5,"address":"6058 Mowry Ave","city":"Newark","lat":37.5236587144,"long":-122.0071447356,"zip code":"94560","Number of Pikachu":24},{"name":"i-Tea","rating":4.0,"address":"34925 Newark Blvd","city":"Newark","lat":37.5506935787,"long":-122.0514674841,"zip code":"94555","Number of Pikachu":25},{"name":"MandRo Teahouse","rating":4.0,"address":"34956 Newark Blvd","city":"Newark","lat":37.5515049151,"long":-122.0502721875,"zip code":"94555","Number of Pikachu":25},{"name":"CaFace","rating":3.5,"address":"6180 Jarvis Ave","city":"Newark","lat":37.54872,"long":-122.04929,"zip code":"94555","Number of Pikachu":25},{"name":"Tasty Pot","rating":4.0,"address":"34909 Newark Blvd","city":"Newark","lat":37.5508,"long":-122.0509,"zip code":"94555","Number of Pikachu":25},{"name":"K-Pop Cafe","rating":4.0,"address":"35041 Fremont Blvd","city":"Fremont","lat":37.570362,"long":-122.0318791,"zip code":"94555","Number of Pikachu":25},{"name":"uRbain tea","rating":3.5,"address":"1590 Washington Blvd","city":"Fremont","lat":37.5312314119,"long":-121.9370478368,"zip code":"94537","Number of Pikachu":4},{"name":"T4 Tea","rating":3.5,"address":"43430 Mission Blvd","city":"Fremont","lat":37.53181,"long":-121.91944,"zip code":"94537","Number of Pikachu":4},{"name":"My Delights","rating":4.0,"address":"43486 Ellsworth St","city":"Fremont","lat":37.5304985046,"long":-121.9206375629,"zip code":"94537","Number of Pikachu":4},{"name":"Icy Blue","rating":3.5,"address":"43360 Mission Blvd","city":"Fremont","lat":37.53259,"long":-121.91949,"zip code":"94537","Number of Pikachu":4},{"name":"La Farfalla Bakery","rating":4.0,"address":"39947 Mission Blvd","city":"Fremont","lat":37.5566932751,"long":-121.9524482932,"zip code":"94537","Number of Pikachu":4},{"name":"Ice3 Creamery","rating":4.0,"address":"39957 Mission Blvd","city":"Fremont","lat":37.556529,"long":-121.952556,"zip code":"94537","Number of Pikachu":4},{"name":"Tea Era","rating":4.0,"address":"271 Castro St","city":"Mountain View","lat":37.3929561,"long":-122.0792811,"zip code":"94041","Number of Pikachu":4},{"name":"The Tea Zone & Fruit Bar","rating":4.5,"address":"805 El Camino Real","city":"Mountain View","lat":37.38565,"long":-122.08442,"zip code":"94041","Number of Pikachu":4},{"name":"Teaspoon","rating":3.5,"address":"236 Castro St","city":"Mountain View","lat":37.3934799,"long":-122.07956,"zip code":"94041","Number of Pikachu":4},{"name":"Verde Tea Cafe","rating":3.5,"address":"852 Villa St","city":"Mountain View","lat":37.3941710599,"long":-122.079548804,"zip code":"94041","Number of Pikachu":4},{"name":"Jazen Tea","rating":3.0,"address":"220 Castro St","city":"Mountain View","lat":37.393661499,"long":-122.0794448853,"zip code":"94041","Number of Pikachu":4},{"name":"Tapioca Express","rating":3.0,"address":"740 Villa St","city":"Mountain View","lat":37.39379,"long":-122.07839,"zip code":"94041","Number of Pikachu":4},{"name":"Teaspoon","rating":4.0,"address":"4546 El Camino Real","city":"Los Altos","lat":37.4012541712,"long":-122.114469292,"zip code":"94023","Number of Pikachu":14},{"name":"i-Tea","rating":4.0,"address":"20666 Redwood Rd","city":"Castro Valley","lat":37.695911,"long":-122.072915,"zip code":"94546","Number of Pikachu":3},{"name":"Sweet Spot","rating":4.5,"address":"20669 Santa Maria Ave","city":"Castro Valley","lat":37.6960964189,"long":-122.0785650238,"zip code":"94546","Number of Pikachu":3},{"name":"T4","rating":3.5,"address":"18911 Lake Chabot Rd","city":"Castro Valley","lat":37.70864,"long":-122.09134,"zip code":"94546","Number of Pikachu":3},{"name":"Milkcow","rating":3.5,"address":"3223 Castro Valley Blvd","city":"Castro Valley","lat":37.69529,"long":-122.07956,"zip code":"94546","Number of Pikachu":3},{"name":"Milk & Cookie Bar","rating":4.5,"address":"18911 Lake Chabot Rd","city":"Castro Valley","lat":37.70864,"long":-122.09134,"zip code":"94546","Number of Pikachu":3},{"name":"Quickly","rating":3.0,"address":"20893 Redwood Rd","city":"Castro Valley","lat":37.6947791129,"long":-122.0739794523,"zip code":"94546","Number of Pikachu":3},{"name":"Pokeatery","rating":4.5,"address":"18911 Lake Chabot Rd","city":"Castro Valley","lat":37.70864,"long":-122.09134,"zip code":"94546","Number of Pikachu":3},{"name":"Tea Villa","rating":4.0,"address":"1679 N Milpitas Blvd","city":"Milpitas","lat":37.4547351746,"long":-121.9115718762,"zip code":"95035","Number of Pikachu":9},{"name":"i-Tea","rating":4.0,"address":"760 E Calaveras Blvd","city":"Milpitas","lat":37.43274,"long":-121.89277,"zip code":"95035","Number of Pikachu":9},{"name":"TeaTop","rating":4.5,"address":"82 Ranch Dr","city":"Milpitas","lat":37.42644,"long":-121.92162,"zip code":"95035","Number of Pikachu":9},{"name":"Ten Ren Tea Co of Milpitas","rating":4.5,"address":"1732 N Milpitas Blvd","city":"Milpitas","lat":37.4555854711,"long":-121.9099842755,"zip code":"95035","Number of Pikachu":9},{"name":"Fantasia Coffee & Tea","rating":4.0,"address":"528 Barber Ln","city":"Milpitas","lat":37.420815169,"long":-121.916592059,"zip code":"95035","Number of Pikachu":9},{"name":"Teaspoon","rating":4.0,"address":"201 W Calaveras Blvd","city":"Milpitas","lat":37.42868,"long":-121.91132,"zip code":"95035","Number of Pikachu":9},{"name":"Teasociety","rating":3.5,"address":"55 N Milpitas Blvd","city":"Milpitas","lat":37.4341782,"long":-121.9007438,"zip code":"95035","Number of Pikachu":9},{"name":"T4","rating":3.5,"address":"540 Barber Ln","city":"Milpitas","lat":37.4207404131,"long":-121.9166488889,"zip code":"95035","Number of Pikachu":9},{"name":"BCUTE tea drinks and finger foods","rating":4.0,"address":"200 Serra Way","city":"Milpitas","lat":37.4264901499,"long":-121.9099963205,"zip code":"95035","Number of Pikachu":9},{"name":"Happy Lemon","rating":4.0,"address":"279 W Calaveras Blvd","city":"Milpitas","lat":37.4274706597,"long":-121.9107824233,"zip code":"95035","Number of Pikachu":9},{"name":"Sno-Crave Tea House","rating":3.5,"address":"1777 N Milpitas Blvd","city":"Milpitas","lat":37.4558077008,"long":-121.9111928344,"zip code":"95035","Number of Pikachu":9},{"name":"Sancha Bar","rating":3.5,"address":"279 Jacklin Rd","city":"Milpitas","lat":37.4464966,"long":-121.9040161,"zip code":"95035","Number of Pikachu":9},{"name":"Chick & Tea","rating":3.5,"address":"1723 N Milpitas Blvd","city":"Milpitas","lat":37.4551887512,"long":-121.9115219116,"zip code":"95035","Number of Pikachu":9},{"name":"Queen's Cafe","rating":3.5,"address":"372 Barber Ln","city":"Milpitas","lat":37.4224649524,"long":-121.9166734785,"zip code":"95035","Number of Pikachu":9},{"name":"85\u00b0C Bakery Cafe","rating":3.5,"address":"672 Barber Ln","city":"Milpitas","lat":37.419465,"long":-121.915568,"zip code":"95035","Number of Pikachu":9},{"name":"Simpletea","rating":3.5,"address":"1535 Landess Ave","city":"Milpitas","lat":37.416848,"long":-121.8768983,"zip code":"95035","Number of Pikachu":9},{"name":"BAMBU","rating":3.5,"address":"89 S Park Victoria Dr","city":"Milpitas","lat":37.433926,"long":-121.884259,"zip code":"95035","Number of Pikachu":9},{"name":"Shihlin Taiwan Street Snacks","rating":4.0,"address":"522 Barber Ln","city":"Milpitas","lat":37.420773,"long":-121.916405,"zip code":"95035","Number of Pikachu":9},{"name":"Aroma Coffee and Snacks","rating":4.0,"address":"1535 Landess Ave","city":"Milpitas","lat":37.4168459527,"long":-121.8767740577,"zip code":"95035","Number of Pikachu":9},{"name":"Pop Tea Bar","rating":4.0,"address":"456 Cambridge Ave","city":"Palo Alto","lat":37.42655,"long":-122.14632,"zip code":"94036","Number of Pikachu":4},{"name":"Gong Cha","rating":4.0,"address":"439 Waverley St","city":"Palo Alto","lat":37.447628,"long":-122.160728,"zip code":"94301","Number of Pikachu":15},{"name":"Sharetea","rating":4.0,"address":"540 Bryant St","city":"Palo Alto","lat":37.445381,"long":-122.160994,"zip code":"94301","Number of Pikachu":15},{"name":"T4","rating":3.5,"address":"165 University Ave","city":"Palo Alto","lat":37.44451,"long":-122.16337,"zip code":"94301","Number of Pikachu":15},{"name":"DAVIDsTEA","rating":4.5,"address":"318 University Ave","city":"Palo Alto","lat":37.4461057,"long":-122.1610267,"zip code":"94301","Number of Pikachu":15},{"name":"pok\u00e9LOVE","rating":3.5,"address":"855 El Camino Real","city":"Palo Alto","lat":37.438632,"long":-122.160532,"zip code":"94301","Number of Pikachu":15},{"name":"Bare Bowls","rating":4.0,"address":"530 Emerson St","city":"Palo Alto","lat":37.44413,"long":-122.16237,"zip code":"94301","Number of Pikachu":15},{"name":"Tea Time","rating":3.5,"address":"542 Ramona St","city":"Palo Alto","lat":37.4446105957,"long":-122.1615447998,"zip code":"94301","Number of Pikachu":15},{"name":"Fraiche","rating":4.0,"address":"200 Hamilton Ave","city":"Palo Alto","lat":37.4438754674,"long":-122.1615958214,"zip code":"94301","Number of Pikachu":15},{"name":"Coupa Caf\u00e9","rating":3.5,"address":"538 Ramona St","city":"Palo Alto","lat":37.444682,"long":-122.161533,"zip code":"94301","Number of Pikachu":15},{"name":"Coupa Caf\u00e9 - Lytton","rating":3.5,"address":"111 Lytton Ave","city":"Palo Alto","lat":37.4444718384,"long":-122.1652222401,"zip code":"94301","Number of Pikachu":15},{"name":"Paris Baguette","rating":3.5,"address":"383 University Ave","city":"Palo Alto","lat":37.4471969604,"long":-122.1607818604,"zip code":"94301","Number of Pikachu":15},{"name":"Coupa Cafe - Green Library","rating":3.5,"address":"571 Escondido Mall","city":"Stanford","lat":37.4262493362,"long":-122.1670675278,"zip code":"94301","Number of Pikachu":15},{"name":"Sharetea","rating":4.0,"address":"699 Lewelling Blvd","city":"San Leandro","lat":37.687487183,"long":-122.1360236406,"zip code":"94579","Number of Pikachu":8},{"name":"D T Dim Sum & Tea","rating":3.5,"address":"1970 Lewelling Blvd","city":"San Leandro","lat":37.6799806952,"long":-122.1546710283,"zip code":"94579","Number of Pikachu":8},{"name":"Pho An Hoa","rating":3.5,"address":"14391 Washington Ave","city":"San Leandro","lat":37.702842,"long":-122.142028,"zip code":"94579","Number of Pikachu":8},{"name":"Craw Station","rating":3.5,"address":"15040 Farnsworth St","city":"San Leandro","lat":37.6906647207,"long":-122.151571008,"zip code":"94579","Number of Pikachu":8},{"name":"Foodnet Supermarket","rating":3.5,"address":"1960 Lewelling Blvd","city":"San Leandro","lat":37.6795,"long":-122.15479,"zip code":"94579","Number of Pikachu":8},{"name":"Boba Guys","rating":4.0,"address":"3491 19th St","city":"San Francisco","lat":37.75994,"long":-122.42112,"zip code":"94110","Number of Pikachu":12},{"name":"Little Heaven Deli","rating":4.5,"address":"2348 Mission St","city":"San Francisco","lat":37.75948,"long":-122.41943,"zip code":"94110","Number of Pikachu":12},{"name":"Boba Guys","rating":4.0,"address":"1002 16th St","city":"San Francisco","lat":37.7665676429,"long":-122.3970559479,"zip code":"94158","Number of Pikachu":1},{"name":"STEEP Creamery & Tea","rating":4.0,"address":"270 Brannan St","city":"San Francisco","lat":37.7825348174,"long":-122.3911802299,"zip code":"94017","Number of Pikachu":2},{"name":"Cuppa","rating":3.5,"address":"2810 Diamond St","city":"San Francisco","lat":37.73429,"long":-122.43417,"zip code":"94131-3228","Number of Pikachu":18},{"name":"FrosTea","rating":3.5,"address":"6178 Mission St","city":"Daly City","lat":37.70689,"long":-122.4588,"zip code":"94014","Number of Pikachu":10},{"name":"i-Tea","rating":4.0,"address":"388 9th St","city":"Oakland","lat":37.8006135941,"long":-122.2706769034,"zip code":"94607","Number of Pikachu":4},{"name":"T&Bowl","rating":4.0,"address":"901 Franklin St","city":"Oakland","lat":37.8004754,"long":-122.2722423,"zip code":"94607","Number of Pikachu":4},{"name":"The Sweet Booth","rating":4.0,"address":"388 9th St","city":"Oakland","lat":37.8004455566,"long":-122.2718353271,"zip code":"94607","Number of Pikachu":4},{"name":"T4","rating":3.0,"address":"1068 Webster St","city":"Oakland","lat":37.8009841,"long":-122.2700858,"zip code":"94607","Number of Pikachu":4},{"name":"Sharetea","rating":3.5,"address":"2670 5th St","city":"Alameda","lat":37.7867215,"long":-122.2813447,"zip code":"94607","Number of Pikachu":4},{"name":"Sweetheart Cafe","rating":3.5,"address":"315 9th St","city":"Oakland","lat":37.7994484,"long":-122.2700968,"zip code":"94607","Number of Pikachu":4},{"name":"50 Tea","rating":3.5,"address":"1004 Webster St","city":"Oakland","lat":37.8007358,"long":-122.270182,"zip code":"94607","Number of Pikachu":4},{"name":"Sancha Bar","rating":2.5,"address":"251 9th St","city":"Oakland","lat":37.7989615788,"long":-122.2688238238,"zip code":"94607","Number of Pikachu":4},{"name":"Alice Street Bakery Caf\u00e9","rating":4.5,"address":"251 10th St","city":"Oakland","lat":37.7996292114,"long":-122.268371582,"zip code":"94607","Number of Pikachu":4},{"name":"Shooting Star Cafe","rating":3.5,"address":"1022 Webster St","city":"Oakland","lat":37.800992,"long":-122.2701305,"zip code":"94607","Number of Pikachu":4},{"name":"i-Tea","rating":4.0,"address":"1626 Park St","city":"Alameda","lat":37.7673552039,"long":-122.2400299832,"zip code":"94501","Number of Pikachu":14},{"name":"Teaway","rating":3.5,"address":"2402 Central Ave","city":"Alameda","lat":37.76394,"long":-122.24266,"zip code":"94501","Number of Pikachu":14},{"name":"Tea Delight","rating":4.0,"address":"650 Central Ave","city":"Alameda","lat":37.7708200997,"long":-122.2775159079,"zip code":"94501","Number of Pikachu":14},{"name":"T4","rating":3.5,"address":"1431 A Park St","city":"Alameda","lat":37.76509,"long":-122.24233,"zip code":"94501","Number of Pikachu":14},{"name":"Teazzert","rating":3.5,"address":"1342 Park St","city":"Alameda","lat":37.76353,"long":-122.24319,"zip code":"94501","Number of Pikachu":14},{"name":"Tapioca Express","rating":3.5,"address":"2306 Encinal Ave","city":"Alameda","lat":37.76273,"long":-122.24497,"zip code":"94501","Number of Pikachu":14},{"name":"Tuttimelon","rating":3.5,"address":"2402 Central Ave","city":"Alameda","lat":37.76394,"long":-122.24266,"zip code":"94501","Number of Pikachu":14},{"name":"Hot Spot","rating":3.5,"address":"2321 Santa Clara Ave","city":"Alameda","lat":37.7657034739,"long":-122.2423785925,"zip code":"94501","Number of Pikachu":14},{"name":"Sharetea","rating":4.0,"address":"2440 Bancroft Way","city":"Berkeley","lat":37.8684064,"long":-122.2605113,"zip code":"94720","Number of Pikachu":4},{"name":"TeaOne Berkeley","rating":3.5,"address":"2380 Telegraph Ave","city":"Berkeley","lat":37.86727,"long":-122.25905,"zip code":"94720","Number of Pikachu":4},{"name":"i-Tea","rating":4.0,"address":"177 Pelton Ctr Way","city":"San Leandro","lat":37.72272,"long":-122.15439,"zip code":"94577","Number of Pikachu":8},{"name":"T4","rating":3.5,"address":"1443 E 14th St","city":"San Leandro","lat":37.723825,"long":-122.154663,"zip code":"94577","Number of Pikachu":8},{"name":"8-Twelve Oriental Market","rating":4.0,"address":"596 E 14th St","city":"San Leandro","lat":37.7310477,"long":-122.1605656,"zip code":"94577","Number of Pikachu":8},{"name":"East 14th Bakery & Cafe","rating":3.5,"address":"1780 E 14th St","city":"San Leandro","lat":37.7215444,"long":-122.1509912,"zip code":"94577","Number of Pikachu":8},{"name":"Tapioca Express","rating":3.5,"address":"129 W Joaquin Ave","city":"San Leandro","lat":37.7239999,"long":-122.15511,"zip code":"94577","Number of Pikachu":8},{"name":"Sweethoney Dessert","rating":3.5,"address":"1423 E 14th St","city":"San Leandro","lat":37.7240845354,"long":-122.1548123938,"zip code":"94577","Number of Pikachu":8},{"name":"Cafe Sorriso","rating":4.0,"address":"1501 Washington Ave","city":"San Leandro","lat":37.7228,"long":-122.155194,"zip code":"94577","Number of Pikachu":8},{"name":"Sweet Dee Cupcakes & Snow Ice","rating":4.0,"address":"109 Pelton Ctr Way","city":"San Leandro","lat":37.7229449751,"long":-122.1535431704,"zip code":"94577","Number of Pikachu":8},{"name":"Leisure Cafe","rating":2.5,"address":"1443 E 14th St","city":"San Leandro","lat":37.7236583502,"long":-122.1545305476,"zip code":"94577","Number of Pikachu":8},{"name":"China Kitchen Express","rating":2.0,"address":"13780 E 14th St","city":"San Leandro","lat":37.7154007,"long":-122.1423264,"zip code":"94577","Number of Pikachu":8},{"name":"Taqueria Los Pericos","rating":4.0,"address":"1389 E 14th St","city":"San Leandro","lat":37.72437,"long":-122.155085,"zip code":"94577","Number of Pikachu":8},{"name":"Pho Anh-Ha","rating":3.5,"address":"2089 E 14th St","city":"San Leandro","lat":37.71929,"long":-122.14865,"zip code":"94577","Number of Pikachu":8},{"name":"Tea Lyfe Drinks","rating":4.0,"address":"989 Story Rd","city":"San Jose","lat":37.3323443189,"long":-121.8577422172,"zip code":"95122","Number of Pikachu":2},{"name":"Teahee","rating":4.0,"address":"979 Story Rd","city":"San Jose","lat":37.3311487641,"long":-121.8573766752,"zip code":"95122","Number of Pikachu":2},{"name":"Soyful Desserts","rating":4.0,"address":"999 Story Rd","city":"San Jose","lat":37.3319875707,"long":-121.8567742123,"zip code":"95122","Number of Pikachu":2},{"name":"Bubbly","rating":4.0,"address":"1816 Tully Rd","city":"San Jose","lat":37.32229,"long":-121.82405,"zip code":"95122","Number of Pikachu":2},{"name":"Shincha Tea","rating":4.0,"address":"2487 Alvin Ave","city":"San Jose","lat":37.3191772792,"long":-121.8270415548,"zip code":"95122","Number of Pikachu":2},{"name":"Sweet Gelato Tea Lounge","rating":4.5,"address":"979 Story Rd","city":"San Jose","lat":37.3313361147,"long":-121.8573819497,"zip code":"95122","Number of Pikachu":2},{"name":"Purple Kow","rating":3.5,"address":"2435 S King Rd","city":"San Jose","lat":37.3210352285,"long":-121.8254060307,"zip code":"95122","Number of Pikachu":2},{"name":"Boba Pub","rating":4.0,"address":"1576 Branham Ln","city":"San Jose","lat":37.25336,"long":-121.9015,"zip code":"95118","Number of Pikachu":3},{"name":"BeiBay Tea","rating":4.0,"address":"1180 Blossom Hill Rd","city":"San Jose","lat":37.2497081431,"long":-121.8792867749,"zip code":"95118","Number of Pikachu":3},{"name":"Teaspoon","rating":4.0,"address":"4328 Moorpark Ave","city":"San Jose","lat":37.3157651,"long":-121.9782757,"zip code":"95129","Number of Pikachu":33},{"name":"TeaTop","rating":4.0,"address":"6158 Bollinger Rd","city":"San Jose","lat":37.3086570138,"long":-122.0125921697,"zip code":"95129","Number of Pikachu":33},{"name":"85\u00b0C Bakery Cafe","rating":3.5,"address":"1183 S De Anza Blvd","city":"San Jose","lat":37.3035809398,"long":-122.0324032009,"zip code":"95129","Number of Pikachu":33},{"name":"Matcha Love","rating":4.0,"address":"675 Saratoga Ave","city":"San Jose","lat":37.314963206,"long":-121.9780952215,"zip code":"95129","Number of Pikachu":33},{"name":"Music Tunnel KTV Cafe","rating":3.5,"address":"1132 S De Anza Blvd","city":"San Jose","lat":37.30529,"long":-122.03167,"zip code":"95129","Number of Pikachu":33},{"name":"Snowflake","rating":3.5,"address":"4306 Moorpark Ave","city":"San Jose","lat":37.3155981168,"long":-121.9772821882,"zip code":"95129","Number of Pikachu":33},{"name":"Boba Bar","rating":3.5,"address":"310 S 3rd St","city":"San Jose","lat":37.332404,"long":-121.8845467,"zip code":"95192","Number of Pikachu":2},{"name":"Sinceretea","rating":4.0,"address":"392 E Taylor St","city":"San Jose","lat":37.3529399,"long":-121.89176,"zip code":"95112","Number of Pikachu":22},{"name":"The Tea Zone & Fruit Bar","rating":3.5,"address":"980 S Winchester Blvd","city":"San Jose","lat":37.309534,"long":-121.949649,"zip code":"95117","Number of Pikachu":24},{"name":"Createave Cafe","rating":4.0,"address":"1698 Hostetter Rd","city":"San Jose","lat":37.3869800204,"long":-121.8835761398,"zip code":"95131","Number of Pikachu":19},{"name":"Gong Cha","rating":3.5,"address":"1701 Lundy Ave","city":"San Jose","lat":37.38753,"long":-121.88725,"zip code":"95131","Number of Pikachu":19},{"name":"Sharetea","rating":3.5,"address":"1728 Hostetter Rd","city":"San Jose","lat":37.387508,"long":-121.882934,"zip code":"95131","Number of Pikachu":19},{"name":"T4","rating":3.5,"address":"1671 N Capitol Ave","city":"San Jose","lat":37.3973731995,"long":-121.8736877441,"zip code":"95131","Number of Pikachu":19},{"name":"BAMBU","rating":4.0,"address":"1688 Hostetter Rd","city":"San Jose","lat":37.3862088776,"long":-121.8844160491,"zip code":"95131","Number of Pikachu":19},{"name":"Black Pearl","rating":3.0,"address":"1055 E Brokaw Rd","city":"San Jose","lat":37.3843159242,"long":-121.8974416958,"zip code":"95131","Number of Pikachu":19},{"name":"Happiness Cafe","rating":4.5,"address":"1688 Hostetter Rd","city":"San Jose","lat":37.3863881482,"long":-121.8848032381,"zip code":"95131","Number of Pikachu":19},{"name":"Sharetea","rating":4.0,"address":"1171 Homestead Rd","city":"Santa Clara","lat":37.34866,"long":-121.94616,"zip code":"95050","Number of Pikachu":18},{"name":"Sharetea","rating":3.5,"address":"2855 Stevens Creek Blvd","city":"Santa Clara","lat":37.32551,"long":-121.94462,"zip code":"95050","Number of Pikachu":18},{"name":"Youji Fresh Rolls Wine & Tea","rating":2.5,"address":"2855 Stevens Creek Blvd","city":"Santa Clara","lat":37.3260364891,"long":-121.944165209,"zip code":"95050","Number of Pikachu":18},{"name":"Caff\u00e9 Central","rating":2.5,"address":"2855 Stevens Creek Blvd","city":"Santa Clara","lat":37.3260982963,"long":-121.9441444427,"zip code":"95050","Number of Pikachu":18},{"name":"Bar Code","rating":3.0,"address":"2855 Stevens Crk Blvd","city":"Santa Clara","lat":37.3260983428,"long":-121.9456189663,"zip code":"95050","Number of Pikachu":18},{"name":"T Spot Boba Drinks & Snacks","rating":4.0,"address":"2520 Berryessa Rd","city":"San Jose","lat":37.3879799,"long":-121.8588819,"zip code":"95132","Number of Pikachu":7},{"name":"Yummi Tea Cafe","rating":4.0,"address":"2191 Morrill Ave","city":"San Jose","lat":37.414925,"long":-121.875899,"zip code":"95132","Number of Pikachu":7},{"name":"The Pennywort","rating":4.0,"address":"2056 N Capitol Ave","city":"San Jose","lat":37.40685,"long":-121.88672,"zip code":"95132","Number of Pikachu":7},{"name":"Quickly","rating":2.5,"address":"1350 S Park Victoria Dr","city":"Milpitas","lat":37.4178751789,"long":-121.8743929755,"zip code":"95132","Number of Pikachu":7},{"name":"Gong Cha","rating":3.5,"address":"1600 Saratoga Ave","city":"San Jose","lat":37.2923420099,"long":-121.9887444159,"zip code":"95130","Number of Pikachu":21},{"name":"Jovie Coffee & Pho","rating":3.5,"address":"136 N San Tomas Aquino","city":"Campbell","lat":37.2878194446,"long":-121.9752118583,"zip code":"95130","Number of Pikachu":21},{"name":"The Moo Bar","rating":3.5,"address":"1080 Kiely Blvd","city":"Santa Clara","lat":37.3459400429,"long":-121.9791519642,"zip code":"95051-4409","Number of Pikachu":2},{"name":"Cocohodo","rating":4.0,"address":"1082 E El Camino Real","city":"Sunnyvale","lat":37.3517264452,"long":-122.0025056099,"zip code":"95051-4409","Number of Pikachu":2},{"name":"Tous Les Jours","rating":3.5,"address":"3535 Homestead Rd","city":"Santa Clara","lat":37.33882,"long":-121.99497,"zip code":"95051-4409","Number of Pikachu":2},{"name":"Tapioca Express","rating":4.0,"address":"81 Curtner Ave","city":"San Jose","lat":37.3030374783,"long":-121.8646012501,"zip code":"95125","Number of Pikachu":21},{"name":"Boba Guys","rating":4.0,"address":"872 Laurel St","city":"San Carlos","lat":37.5027402544,"long":-122.2569801585,"zip code":"94070","Number of Pikachu":16},{"name":"Mints & Honey","rating":4.5,"address":"1524 El Camino Real","city":"San Carlos","lat":37.49613,"long":-122.2477,"zip code":"94070","Number of Pikachu":16},{"name":"Teaquation","rating":4.5,"address":"1036 El Camino Real","city":"Redwood City","lat":37.4839509442,"long":-122.2326535015,"zip code":"94063","Number of Pikachu":21},{"name":"Chatime","rating":4.0,"address":"2202 Broadway St","city":"Redwood City","lat":37.487118,"long":-122.229624,"zip code":"94063","Number of Pikachu":21},{"name":"Teatime","rating":4.0,"address":"1003 El Camino Real","city":"Redwood City","lat":37.4846042071,"long":-122.2324271395,"zip code":"94063","Number of Pikachu":21},{"name":"Comebuy Drinks","rating":4.0,"address":"2074 Broadway","city":"Redwood City","lat":37.4868,"long":-122.22766,"zip code":"94063","Number of Pikachu":21},{"name":"Teaspoon","rating":4.0,"address":"2361 Broadway St","city":"Redwood City","lat":37.4861601263,"long":-122.2307401523,"zip code":"94063","Number of Pikachu":21},{"name":"Quickly","rating":3.0,"address":"300 Walnut St","city":"Redwood City","lat":37.4917931901,"long":-122.2241925315,"zip code":"94063","Number of Pikachu":21},{"name":"Taza Deli & Cafe","rating":5.0,"address":"1796 Broadway","city":"Redwood City","lat":37.4868656,"long":-122.2234133,"zip code":"94063","Number of Pikachu":21},{"name":"Froyola","rating":4.0,"address":"2206 Broadway St","city":"Redwood City","lat":37.4867482944,"long":-122.2293601037,"zip code":"94063","Number of Pikachu":21},{"name":"Green Leaf Asian Bistro & Cafe","rating":4.0,"address":"865 Middlefield Rd","city":"Redwood City","lat":37.4857502211,"long":-122.2288349258,"zip code":"94063","Number of Pikachu":21},{"name":"T4","rating":3.5,"address":"1033 B St","city":"Hayward","lat":37.6731435371,"long":-122.082034403,"zip code":"94544","Number of Pikachu":36},{"name":"Munch","rating":4.0,"address":"27560 Tampa Ave","city":"Hayward","lat":37.631869,"long":-122.075384,"zip code":"94544","Number of Pikachu":36},{"name":"Teaster","rating":3.5,"address":"410 W A St","city":"Hayward","lat":37.6660188062,"long":-122.1083950277,"zip code":"94541","Number of Pikachu":4},{"name":"Eko Coffee Bar & Tea House","rating":4.0,"address":"1075 B St","city":"Hayward","lat":37.6737070084,"long":-122.0813971013,"zip code":"94541","Number of Pikachu":4},{"name":"Sivan's Cafe","rating":4.5,"address":"766 A St","city":"Hayward","lat":37.67244,"long":-122.08685,"zip code":"94541","Number of Pikachu":4},{"name":"Yogurt Hill","rating":4.0,"address":"1081 B St","city":"Hayward","lat":37.67355,"long":-122.08114,"zip code":"94541","Number of Pikachu":4},{"name":"Fantasia Coffee & Tea","rating":4.0,"address":"10933 N Wolfe Rd","city":"Cupertino","lat":37.3361159244,"long":-122.0158903075,"zip code":"95014","Number of Pikachu":9},{"name":"Ten Ren Tea","rating":4.0,"address":"10881 N Wolfe Rd","city":"Cupertino","lat":37.3356484303,"long":-122.0149566829,"zip code":"95014","Number of Pikachu":9},{"name":"Meet Fresh","rating":3.0,"address":"19449 Stevens Creek Blvd","city":"Cupertino","lat":37.3243651,"long":-122.0105533,"zip code":"95014","Number of Pikachu":9},{"name":"Cafe LaTTea","rating":3.5,"address":"19501 Stevens Creek Blvd","city":"Cupertino","lat":37.3232413178,"long":-122.0122614662,"zip code":"95014","Number of Pikachu":9},{"name":"T4 Cupertino","rating":4.0,"address":"19505 Stevens Creek Blvd","city":"Cupertino","lat":37.32328,"long":-122.01283,"zip code":"95014","Number of Pikachu":9},{"name":"Tea Chansii","rating":3.0,"address":"19449 Stevens Creek Blvd","city":"Cupertino","lat":37.324398934,"long":-122.0111382693,"zip code":"95014","Number of Pikachu":9},{"name":"Calibear Cyber Cafe","rating":4.5,"address":"1336 S Mary Ave","city":"Sunnyvale","lat":37.35065,"long":-122.04962,"zip code":"94087","Number of Pikachu":18},{"name":"Happy Lemon","rating":4.5,"address":"605 E El Camino Real","city":"Sunnyvale","lat":37.36189,"long":-122.02454,"zip code":"94088-3707","Number of Pikachu":5},{"name":"Sharetea","rating":4.0,"address":"568 El Camino Real","city":"Sunnyvale","lat":37.3623572836,"long":-122.027256087,"zip code":"94088-3707","Number of Pikachu":5},{"name":"Bubble Tea Time","rating":4.0,"address":"18564 Prospect Rd","city":"Saratoga","lat":37.29165,"long":-121.99636,"zip code":"95070","Number of Pikachu":38},{"name":"Satori Tea Company","rating":3.5,"address":"14482 Big Basin Way","city":"Saratoga","lat":37.2574696,"long":-122.0335427,"zip code":"95070","Number of Pikachu":38},{"name":"Teaspoon","rating":4.0,"address":"3450 El Camino Real","city":"Santa Clara","lat":37.3519877135,"long":-121.9912302018,"zip code":"95051","Number of Pikachu":20},{"name":"California Mochi","rating":4.0,"address":"3030 El Camino Real","city":"Santa Clara","lat":37.3517723083,"long":-121.9811935425,"zip code":"95051","Number of Pikachu":20},{"name":"Jazen Tea Santa Clara","rating":2.5,"address":"3484 El Camino Real","city":"Santa Clara","lat":37.3515863913,"long":-121.9927014847,"zip code":"95051","Number of Pikachu":20},{"name":"Honeyberry","rating":3.5,"address":"3488 El Camino Real","city":"Santa Clara","lat":37.3515681496,"long":-121.9928447295,"zip code":"95051","Number of Pikachu":20},{"name":"Beastea","rating":4.0,"address":"2785 El Camino Real","city":"Santa Clara","lat":37.35297,"long":-121.97705,"zip code":"95051-1880","Number of Pikachu":4},{"name":"Tea Annie","rating":4.0,"address":"1712 Miramonte Ave","city":"Mountain View","lat":37.3723,"long":-122.08801,"zip code":"94040","Number of Pikachu":11},{"name":"Chilly & Munch","rating":4.5,"address":"2101 Showers Dr","city":"Mountain View","lat":37.4068109566,"long":-122.1069847116,"zip code":"94040","Number of Pikachu":11},{"name":"Panda Express","rating":2.0,"address":"1035 El Monte Ave","city":"Mountain View","lat":37.3909837667,"long":-122.0952940888,"zip code":"94040","Number of Pikachu":11},{"name":"Nekter Juice Bar","rating":3.5,"address":"685 San Antonio Rd","city":"Mountain View","lat":37.4015599,"long":-122.1132477,"zip code":"94040","Number of Pikachu":11},{"name":"TeaFans","rating":3.5,"address":"927 E Arques Ave","city":"Sunnyvale","lat":37.3813699,"long":-122.00808,"zip code":"94085","Number of Pikachu":4},{"name":"Quickly","rating":3.5,"address":"415 N Mary Ave","city":"Sunnyvale","lat":37.3900761921,"long":-122.0421847436,"zip code":"94085","Number of Pikachu":4},{"name":"BAMBU","rating":3.5,"address":"189 W Washington Ave","city":"Sunnyvale","lat":37.3763175471,"long":-122.0313258781,"zip code":"94086","Number of Pikachu":10},{"name":"Bean Scene","rating":3.5,"address":"186 S Murphy Ave","city":"Sunnyvale","lat":37.3761834,"long":-122.0301825,"zip code":"94086","Number of Pikachu":10},{"name":"Icicles","rating":4.0,"address":"19622 Stevens Creek Blvd","city":"Cupertino","lat":37.322517736,"long":-122.0179255,"zip code":"95014-2456","Number of Pikachu":4},{"name":"Ocha Tea Caf\u00e9 & Restaurant","rating":3.5,"address":"1350 Grant Rd","city":"Mountain View","lat":37.3770405228,"long":-122.0766832935,"zip code":"9404","Number of Pikachu":2},{"name":"Butterfly","rating":4.0,"address":"1000 Lafayette St","city":"Santa Clara","lat":37.3503116,"long":-121.9438457,"zip code":"95050-9998","Number of Pikachu":4},{"name":"Frozo's Frozen Yogurt","rating":3.5,"address":"1000 Lafayette St","city":"Santa Clara","lat":37.3503848,"long":-121.9437883,"zip code":"95050-9998","Number of Pikachu":4},{"name":"Pearl Cafe","rating":3.5,"address":"506A Showers Dr","city":"Mountain View","lat":37.4029828637,"long":-122.1067610623,"zip code":"94022","Number of Pikachu":35},{"name":"The Posh Bagel","rating":3.5,"address":"310 Main St","city":"Los Altos","lat":37.3783798,"long":-122.1170197,"zip code":"94022","Number of Pikachu":35},{"name":"Teaspoon","rating":4.5,"address":"2675 Middlefield Rd","city":"Palo Alto","lat":37.434085,"long":-122.129446,"zip code":"94303","Number of Pikachu":25},{"name":"Dohatsuten","rating":3.5,"address":"799 San Antonio Rd","city":"Palo Alto","lat":37.4203109741,"long":-122.1023483276,"zip code":"94303","Number of Pikachu":25},{"name":"Honeyberry","rating":4.5,"address":"3655 N 1st St","city":"San Jose","lat":37.4093138578,"long":-121.945219193,"zip code":"95134","Number of Pikachu":19},{"name":"Chantal Guillon Macarons & Teas","rating":4.5,"address":"444 University Ave","city":"Palo Alto","lat":37.44752,"long":-122.15965,"zip code":"94301-2019","Number of Pikachu":11},{"name":"CREAM","rating":3.5,"address":"440 University Ave","city":"Palo Alto","lat":37.447555,"long":-122.159804,"zip code":"94301-2019","Number of Pikachu":11},{"name":"Yogurtland","rating":4.0,"address":"494 University Ave","city":"Palo Alto","lat":37.4480657,"long":-122.159221,"zip code":"94301-2019","Number of Pikachu":11},{"name":"Happy Donuts","rating":3.5,"address":"3916 El Camino Real","city":"Palo Alto","lat":37.41643,"long":-122.13004,"zip code":"94306","Number of Pikachu":15},{"name":"Ohana Express","rating":4.0,"address":"640 Woodside Rd","city":"Redwood City","lat":37.46868,"long":-122.224,"zip code":"94061","Number of Pikachu":26},{"name":"Green Bakery & Caf\u00e9","rating":3.5,"address":"692 Fremont Ave","city":"Los Altos","lat":37.3604672927,"long":-122.0967570045,"zip code":"94024","Number of Pikachu":7},{"name":"Wild Berry Yogurt","rating":3.5,"address":"325 Sharon Park Dr","city":"Menlo Park","lat":37.42398,"long":-122.19693,"zip code":"94028","Number of Pikachu":4},{"name":"Rojoz Gourmet Wraps","rating":3.5,"address":"3906 Middlefield Rd","city":"Palo Alto","lat":37.41883,"long":-122.1099,"zip code":"94043","Number of Pikachu":10},{"name":"Mr. Green Bubble","rating":5.0,"address":"1255 S Mary Ave","city":"Sunnyvale","lat":37.35338,"long":-122.05071,"zip code":"94087-2248","Number of Pikachu":9},{"name":"Koma Sushi Restaurant","rating":3.5,"address":"211 El Camino Real","city":"Menlo Park","lat":37.4483544,"long":-122.1743768,"zip code":"94025","Number of Pikachu":74},{"name":"The Axe and Palm","rating":2.5,"address":"Old Union Stanford University","city":"Stanford","lat":37.4253717547,"long":-122.1705436707,"zip code":"94305-6015","Number of Pikachu":9},{"name":"Tea World","rating":4.0,"address":"90 Eureka Sq","city":"Pacifica","lat":37.6337492,"long":-122.4887216,"zip code":"94044","Number of Pikachu":9},{"name":"Boba Dude","rating":3.5,"address":"80 Cabrillo Hwy N","city":"Half Moon Bay","lat":37.4702203984,"long":-122.4355690554,"zip code":"94019","Number of Pikachu":8},{"name":"Tpumps","rating":4.0,"address":"985 E Hillsdale Blvd","city":"Foster City","lat":37.5573531403,"long":-122.2747423404,"zip code":"94404","Number of Pikachu":12},{"name":"Chatime","rating":3.5,"address":"969A Edgewater Blvd","city":"Foster City","lat":37.544739,"long":-122.271085,"zip code":"94404","Number of Pikachu":12},{"name":"Quickly","rating":3.0,"address":"969k Edgewater Blvd","city":"Foster City","lat":37.5447599,"long":-122.27104,"zip code":"94404","Number of Pikachu":12},{"name":"Moo Moo Yogurt","rating":4.0,"address":"969F Edgewater Blvd","city":"Foster City","lat":37.5441112401,"long":-122.2706710073,"zip code":"94404","Number of Pikachu":12},{"name":"Fashion Wok","rating":4.0,"address":"929 A Edgewater Blvd","city":"Foster City","lat":37.5452836455,"long":-122.2704650073,"zip code":"94404","Number of Pikachu":12},{"name":"Cooking Papa Restaurant","rating":3.5,"address":"949A Edgewater Blvd","city":"Foster City","lat":37.5446131175,"long":-122.2704258035,"zip code":"94404","Number of Pikachu":12},{"name":"Jougert Bar","rating":4.5,"address":"1115 Burlingame Ave","city":"Burlingame","lat":37.5793126,"long":-122.3457401,"zip code":"94010","Number of Pikachu":3},{"name":"T4","rating":4.0,"address":"13350 San Pablo Ave","city":"San Pablo","lat":37.9547668989,"long":-122.3341668611,"zip code":"94806","Number of Pikachu":4},{"name":"Dragon Snow","rating":3.5,"address":"3550 San Pablo Dam Rd","city":"El Sobrante","lat":37.96301,"long":-122.31987,"zip code":"94806","Number of Pikachu":4},{"name":"Aloha Pure Water Shaved Ice","rating":4.5,"address":"2300 El Portal Dr","city":"San Pablo","lat":37.966045,"long":-122.343246,"zip code":"94806","Number of Pikachu":4},{"name":"Honey Bear Smoothie Tea & Dessert","rating":5.0,"address":"1 Southland Mall Dr","city":"Hayward","lat":37.6542332,"long":-122.1048419,"zip code":"94545","Number of Pikachu":26},{"name":"Quickly","rating":2.5,"address":"25034 Hesperian Blvd","city":"Hayward","lat":37.644355022,"long":-122.1046305602,"zip code":"94545","Number of Pikachu":26},{"name":"Polaris Ice Cream Rolls","rating":4.0,"address":"595 Southland Mall","city":"Hayward","lat":37.6525483727,"long":-122.1064539013,"zip code":"94545","Number of Pikachu":26},{"name":"World's Fare Donuts","rating":4.5,"address":"20770 Hesperian Blvd","city":"Hayward","lat":37.6651882648,"long":-122.1164805685,"zip code":"94545","Number of Pikachu":26},{"name":"Yo Bowl","rating":4.0,"address":"8 Southland Mall","city":"Hayward","lat":37.651128,"long":-122.101296,"zip code":"94545","Number of Pikachu":26},{"name":"Steepers","rating":4.5,"address":"346 E Campbell Ave","city":"Campbell","lat":37.28691,"long":-121.94397,"zip code":"95008","Number of Pikachu":3},{"name":"YoDo Yogurt","rating":3.5,"address":"2475 S Winchester Blvd","city":"Campbell","lat":37.2784787,"long":-121.9497792,"zip code":"95008","Number of Pikachu":3},{"name":"Bagel Street Cafe","rating":3.0,"address":"254 Redwood Shores Pkwy","city":"Redwood City","lat":37.5224668331,"long":-122.2516251357,"zip code":"94065","Number of Pikachu":17},{"name":"Quickly","rating":2.5,"address":"15251 Hesperian Blvd","city":"San Leandro","lat":37.6978340149,"long":-122.130355835,"zip code":"94578","Number of Pikachu":7},{"name":"Loving Tea","rating":2.0,"address":"1338 Fairmont Dr","city":"San Leandro","lat":37.7026172,"long":-122.1272393,"zip code":"94578","Number of Pikachu":7},{"name":"Quickly","rating":3.5,"address":"17940 Hesperian Blvd","city":"San Lorenzo","lat":37.6729889961,"long":-122.1221397735,"zip code":"94578","Number of Pikachu":7},{"name":"Alohana Hawaiian Grill","rating":3.0,"address":"15555 E 14th St","city":"San Leandro","lat":37.700116,"long":-122.126858,"zip code":"94578","Number of Pikachu":7},{"name":"Hanoi Chicken Noodle","rating":3.5,"address":"13720 Doolittle Dr","city":"San Leandro","lat":37.69982,"long":-122.17564,"zip code":"94580","Number of Pikachu":11},{"name":"R & D Cafe","rating":4.0,"address":"15813 Channel St","city":"San Lorenzo","lat":37.6770314768,"long":-122.1425617743,"zip code":"94580","Number of Pikachu":11}]